{"locations": [{"latitude": 35.93154, "longitude": -84.01588, "location_id": "abridged beer company"}, {"latitude": 35.95316, "longitude": -83.96377, "location_id": "albright grove brewing company"}, {"latitude": 35.76191, "longitude": -83.96586, "location_id": "blackberry farm brewery"}, {"latitude": 35.96543, "longitude": -83.91842, "location_id": "blackhorse brewery"}, {"latitude": 36.211719, "longitude": -84.0731926, "location_id": "clinch river brewing"}, {"latitude": 35.96557, "longitude": -83.91849, "location_id": "downtown grill brewery"}, {"latitude": 35.97776, "longitude": -83.92358, "location_id": "elkmont exchange brewery"}, {"latitude": 35.99062, "longitude": -83.94067, "location_id": "elst brewing company"}, {"latitude": 35.99217, "longitude": -83.94267, "location_id": "fanatic brewing co "}, {"latitude": 36.00828, "longitude": -83.94812, "location_id": "hexagon brewing company"}, {"latitude": 35.97731, "longitude": -83.92634, "location_id": "schulz br\u00e4u brewing company"}, {"latitude": 35.7085336, "longitude": -83.521008, "location_id": "smoky mountain brewery"}, {"latitude": 35.80219, "longitude": -83.57124, "location_id": "yee haw brewing co "}, {"latitude": 35.95975, "longitude": -83.90311, "location_id": "alliance brewing co"}, {"latitude": 35.96658, "longitude": -83.92441, "location_id": "balter beerworks"}, {"latitude": 35.97463, "longitude": -83.9226, "location_id": "crafty bastard brewery"}, {"latitude": 35.97432, "longitude": -83.92033, "location_id": "geezers brewing co"}, {"latitude": 35.9028866, "longitude": -84.1482036, "location_id": "home"}, {"latitude": 35.9760533, "longitude": -83.9149333, "location_id": "last days of autumn brewing"}, {"latitude": 35.97626, "longitude": -83.92371, "location_id": "next level brewing company"}, {"latitude": 35.96934, "longitude": -83.91802, "location_id": "pretentious beer co"}, {"latitude": 35.96062, "longitude": -83.89669, "location_id": "printshop beer co"}, {"latitude": 35.75608, "longitude": -83.99436, "location_id": "round 6 brewing"}], "orders": [{"order_id": "abridged beer company", "location_id": "abridged beer company", "duration": 7200.0}, {"order_id": "albright grove brewing company", "location_id": "albright grove brewing company", "duration": 7200.0}, {"order_id": "blackberry farm brewery", "location_id": "blackberry farm brewery", "duration": 7200.0}, {"order_id": "blackhorse brewery", "location_id": "blackhorse brewery", "duration": 7200.0}, {"order_id": "clinch river brewing", "location_id": "clinch river brewing", "duration": 7200.0}, {"order_id": "downtown grill brewery", "location_id": "downtown grill brewery", "duration": 7200.0}, {"order_id": "elkmont exchange brewery", "location_id": "elkmont exchange brewery", "duration": 7200.0}, {"order_id": "elst brewing company", "location_id": "elst brewing company", "duration": 7200.0}, {"order_id": "fanatic brewing co ", "location_id": "fanatic brewing co ", "duration": 7200.0}, {"order_id": "hexagon brewing company", "location_id": "hexagon brewing company", "duration": 7200.0}, {"order_id": "schulz br\u00e4u brewing company", "location_id": "schulz br\u00e4u brewing company", "duration": 7200.0}, {"order_id": "smoky mountain brewery", "location_id": "smoky mountain brewery", "duration": 7200.0}, {"order_id": "yee haw brewing co ", "location_id": "yee haw brewing co ", "duration": 7200.0}, {"order_id": "alliance brewing co", "location_id": "alliance brewing co", "duration": 7200.0}, {"order_id": "balter beerworks", "location_id": "balter beerworks", "duration": 7200.0}, {"order_id": "crafty bastard brewery", "location_id": "crafty bastard brewery", "duration": 7200.0}, {"order_id": "geezers brewing co", "location_id": "geezers brewing co", "duration": 7200.0}, {"order_id": "last days of autumn brewing", "location_id": "last days of autumn brewing", "duration": 7200.0}, {"order_id": "next level brewing company", "location_id": "next level brewing company", "duration": 7200.0}, {"order_id": "pretentious beer co", "location_id": "pretentious beer co", "duration": 7200.0}, {"order_id": "printshop beer co", "location_id": "printshop beer co", "duration": 7200.0}, {"order_id": "round 6 brewing", "location_id": "round 6 brewing", "duration": 7200.0}], "vehicles": [{"vehicle_id": "uber", "type": "car", "shifts": [{"start_location_id": "home", "end_location_id": "home", "shift_start": "2020-03-13T17:00:00", "shift_end": "2020-03-14T01:00:00", "shift_id": "crawl_shift_0"}, {"start_location_id": "home", "end_location_id": "home", "shift_start": "2020-03-20T17:00:00", "shift_end": "2020-03-21T01:00:00", "shift_id": "crawl_shift_1"}, {"start_location_id": "home", "end_location_id": "home", "shift_start": "2020-03-27T17:00:00", "shift_end": "2020-03-28T01:00:00", "shift_id": "crawl_shift_2"}, {"start_location_id": "home", "end_location_id": "home", "shift_start": "2020-04-03T17:00:00", "shift_end": "2020-04-04T01:00:00", "shift_id": "crawl_shift_3"}, {"start_location_id": "home", "end_location_id": "home", "shift_start": "2020-03-14T13:00:00", "shift_end": "2020-03-15T01:00:00", "shift_id": "crawl_shift_4"}, {"start_location_id": "home", "end_location_id": "home", "shift_start": "2020-03-21T13:00:00", "shift_end": "2020-03-22T01:00:00", "shift_id": "crawl_shift_5"}, {"start_location_id": "home", "end_location_id": "home", "shift_start": "2020-03-28T13:00:00", "shift_end": "2020-03-29T01:00:00", "shift_id": "crawl_shift_6"}, {"start_location_id": "home", "end_location_id": "home", "shift_start": "2020-04-04T13:00:00", "shift_end": "2020-04-05T01:00:00", "shift_id": "crawl_shift_7"}, {"start_location_id": "home", "end_location_id": "home", "shift_start": "2020-03-08T14:00:00", "shift_end": "2020-03-08T21:00:00", "shift_id": "crawl_shift_8"}, {"start_location_id": "home", "end_location_id": "home", "shift_start": "2020-03-15T14:00:00", "shift_end": "2020-03-15T21:00:00", "shift_id": "crawl_shift_9"}, {"start_location_id": "home", "end_location_id": "home", "shift_start": "2020-03-22T14:00:00", "shift_end": "2020-03-22T21:00:00", "shift_id": "crawl_shift_10"}, {"start_location_id": "home", "end_location_id": "home", "shift_start": "2020-03-29T14:00:00", "shift_end": "2020-03-29T21:00:00", "shift_id": "crawl_shift_11"}]}], "constraints": [{"constraint_type": "travel_time", "constraint_name": "Minimize travel time", "violation_increment": 1, "penalty_per_violation": 1, "max_travel_time_seconds": 0}, {"constraint_type": "visit_range", "constraint_name": "visit as many orders as possible", "violation_increment": 1, "penalty_per_violation": 10000}]}