{"locations": [{"latitude": 35.9316699, "longitude": -84.01561, "location_id": "abridged beer company"}, {"latitude": 35.95292, "longitude": -83.96364, "location_id": "albright grove brewing company"}, {"latitude": 35.76202, "longitude": -83.96577, "location_id": "blackberry farm brewery"}, {"latitude": 35.96557, "longitude": -83.91803, "location_id": "blackhorse brewery"}, {"latitude": 36.2067238, "longitude": -84.0757977, "location_id": "clinch river brewing"}, {"latitude": 35.96571, "longitude": -83.91811, "location_id": "downtown grill brewery"}, {"latitude": 35.97777, "longitude": -83.9239, "location_id": "elkmont exchange brewery"}, {"latitude": 35.99043, "longitude": -83.94088, "location_id": "elst brewing company"}, {"latitude": 35.992, "longitude": -83.94288, "location_id": "fanatic brewing co "}, {"latitude": 36.0085299, "longitude": -83.9472153, "location_id": "hexagon brewing company"}, {"latitude": 35.97715, "longitude": -83.92616, "location_id": "schulz br\u00e4u brewing company"}, {"latitude": 35.7084469, "longitude": -83.5208808, "location_id": "smoky mountain brewery"}, {"latitude": 35.8023912, "longitude": -83.5711328, "location_id": "yee haw brewing co "}, {"latitude": 35.95957, "longitude": -83.90303, "location_id": "alliance brewing co"}, {"latitude": 35.9664379, "longitude": -83.9242751, "location_id": "balter beerworks"}, {"latitude": 35.97435, "longitude": -83.92231, "location_id": "crafty bastard brewery"}, {"latitude": 35.9745095, "longitude": -83.9203502, "location_id": "geezers brewing co"}, {"latitude": 35.9027523, "longitude": -84.1482191, "location_id": "home"}, {"latitude": 35.9758859, "longitude": -83.9149349, "location_id": "last days of autumn brewing"}, {"latitude": 35.97625, "longitude": -83.9235, "location_id": "next level brewing company"}, {"latitude": 35.96928, "longitude": -83.9183, "location_id": "pretentious beer co"}, {"latitude": 35.9605448, "longitude": -83.897163, "location_id": "printshop beer co"}, {"latitude": 35.75576, "longitude": -83.9939799, "location_id": "round 6 brewing"}], "orders": [{"order_id": "abridged beer company", "location_id": "abridged beer company", "duration": 3600.0}, {"order_id": "albright grove brewing company", "location_id": "albright grove brewing company", "duration": 3600.0}, {"order_id": "blackberry farm brewery", "location_id": "blackberry farm brewery", "duration": 3600.0}, {"order_id": "blackhorse brewery", "location_id": "blackhorse brewery", "duration": 3600.0}, {"order_id": "clinch river brewing", "location_id": "clinch river brewing", "duration": 3600.0}, {"order_id": "downtown grill brewery", "location_id": "downtown grill brewery", "duration": 3600.0}, {"order_id": "elkmont exchange brewery", "location_id": "elkmont exchange brewery", "duration": 3600.0}, {"order_id": "elst brewing company", "location_id": "elst brewing company", "duration": 3600.0}, {"order_id": "fanatic brewing co ", "location_id": "fanatic brewing co ", "duration": 3600.0}, {"order_id": "hexagon brewing company", "location_id": "hexagon brewing company", "duration": 3600.0}, {"order_id": "schulz br\u00e4u brewing company", "location_id": "schulz br\u00e4u brewing company", "duration": 3600.0}, {"order_id": "smoky mountain brewery", "location_id": "smoky mountain brewery", "duration": 3600.0}, {"order_id": "yee haw brewing co ", "location_id": "yee haw brewing co ", "duration": 3600.0}, {"order_id": "alliance brewing co", "location_id": "alliance brewing co", "duration": 3600.0}, {"order_id": "balter beerworks", "location_id": "balter beerworks", "duration": 3600.0}, {"order_id": "crafty bastard brewery", "location_id": "crafty bastard brewery", "duration": 3600.0}, {"order_id": "geezers brewing co", "location_id": "geezers brewing co", "duration": 3600.0}, {"order_id": "last days of autumn brewing", "location_id": "last days of autumn brewing", "duration": 3600.0}, {"order_id": "next level brewing company", "location_id": "next level brewing company", "duration": 3600.0}, {"order_id": "pretentious beer co", "location_id": "pretentious beer co", "duration": 3600.0}, {"order_id": "printshop beer co", "location_id": "printshop beer co", "duration": 3600.0}, {"order_id": "round 6 brewing", "location_id": "round 6 brewing", "duration": 3600.0}], "vehicles": [{"vehicle_id": "uber", "type": "car", "shifts": [{"start_location_id": "home", "end_location_id": "home", "shift_start": "2020-01-24T17:00:00", "shift_end": "2020-01-26T20:00:00", "shift_id": "crawl_shift"}]}], "constraints": [{"constraint_type": "travel_time", "constraint_name": "Minimize travel time", "violation_increment": 1, "penalty_per_violation": 1, "max_travel_time_seconds": 0}, {"constraint_type": "visit_range", "constraint_name": "visit as many orders as possible", "violation_increment": 1, "penalty_per_violation": 10000}]}