{"locations": [{"latitude": 35.95957, "longitude": -83.90303, "location_id": "alliance brewing co"}, {"latitude": 35.9605448, "longitude": -83.897163, "location_id": "printshop beer co"}, {"latitude": 35.96928, "longitude": -83.9183, "location_id": "pretentious beer co"}, {"latitude": 35.97625, "longitude": -83.9235, "location_id": "next level brewing company"}, {"latitude": 35.97435, "longitude": -83.92231, "location_id": "crafty bastard brewery"}, {"latitude": 35.9745095, "longitude": -83.9203502, "location_id": "geezers brewing co"}, {"latitude": 35.9758859, "longitude": -83.9149349, "location_id": "last days of autumn brewing"}, {"latitude": 35.97777, "longitude": -83.9239, "location_id": "elkmont exchange brewery"}, {"latitude": 35.99043, "longitude": -83.94088, "location_id": "elst brewing company"}, {"latitude": 35.95292, "longitude": -83.96364, "location_id": "albright grove brewing company"}, {"latitude": 36.0085299, "longitude": -83.9472153, "location_id": "hexagon brewing company"}, {"latitude": 35.88956, "longitude": -84.02168, "location_id": "home"}], "orders": [{"order_id": "alliance brewing co", "location_id": "alliance brewing co", "duration": 1800.0, "priority": 1}, {"order_id": "printshop beer co", "location_id": "printshop beer co", "duration": 1800.0, "priority": 1}, {"order_id": "pretentious beer co", "location_id": "pretentious beer co", "duration": 1800.0, "priority": 1}, {"order_id": "next level brewing company", "location_id": "next level brewing company", "duration": 1800.0, "priority": 1}, {"order_id": "crafty bastard brewery", "location_id": "crafty bastard brewery", "duration": 1800.0, "priority": 1}, {"order_id": "geezers brewing co", "location_id": "geezers brewing co", "duration": 1800.0, "priority": 1}, {"order_id": "last days of autumn brewing", "location_id": "last days of autumn brewing", "duration": 1800.0, "priority": 1}, {"order_id": "elkmont exchange brewery", "location_id": "elkmont exchange brewery", "duration": 9000.0, "priority": 1, "appointments": [{"appointment_start": "2020-01-25T15:45:00", "appointment_end": "2020-01-25T18:15:00"}]}, {"order_id": "elst brewing company", "location_id": "elst brewing company", "duration": 1800.0, "priority": 1}, {"order_id": "albright grove brewing company", "location_id": "albright grove brewing company", "duration": 1800.0, "priority": 1}, {"order_id": "hexagon brewing company", "location_id": "hexagon brewing company", "duration": 1800.0, "priority": 1}], "vehicles": [{"vehicle_id": "uber", "type": "car", "shifts": [{"shift_start": "2020-01-25T11:41:37.850950-05:00", "shift_end": "2020-01-25T19:41:37.850950-05:00", "shift_id": "crawl_shift", "start_location_id": "home", "end_location_id": "home"}]}], "constraints": [{"constraint_type": "travel_time", "constraint_name": "Minimize travel time", "violation_increment": 1, "penalty_per_violation": 1, "max_travel_time_seconds": 0}, {"constraint_type": "scheduled_appointment", "constraint_name": "Meet scheduled appointments", "violation_increment": 1, "penalty_per_violation": 10000}, {"constraint_type": "visit_range", "constraint_name": "visit as many orders as possible", "penalty_per_violation": 100, "violation_increment": 1}]}